{
  "branches_page": {
    "hero": {
      "subtitle": "OUR BRANCHES",
      "title": "Extensive Network, Local Service",
      "description": "Find our expert support in 8 major cities across Indonesia, ready to serve wherever your project is located.",
      "image": "/branches/hero-branches.webp",
      "breadcrumbs": [
        { "name": "Home", "link": "/" },
        { "name": "Our Branches" }
      ]
    },
    "interactive_map": {
      "title": "Explore Our Branch Network",
      "branches": [
        {
          "id": "jabodetabek",
          "city": "Jabodetabek",
          "address": "Jl. Raya Cilandak KKO No.1, RT.13/RW.5, Ragunan, Ps. Minggu, South Jakarta",
          "map_link": "https://maps.app.goo.gl/EXAMPLE",
          "phone": "(021) 782-2373",
          "coords": { "lat": -6.29, "lng": 106.82 }
        },
        {
          "id": "bandung",
          "city": "Bandung",
          "address": "Jl. Soekarno Hatta No. 438, Bandung City, West Java",
          "map_link": "https://maps.app.goo.gl/EXAMPLE",
          "phone": "(022) 520-1234",
          "coords": { "lat": -6.94, "lng": 107.62 }
        },
        {
          "id": "semarang",
          "city": "Semarang",
          "address": "Jl. Jenderal Sudirman No. 320, Semarang City, Central Java",
          "map_link": "https://maps.app.goo.gl/EXAMPLE",
          "phone": "(024) 760-5678",
          "coords": { "lat": -6.98, "lng": 110.41 }
        },
        {
          "id": "surabaya",
          "city": "Surabaya",
          "address": "Jl. Raya Surabaya-Malang KM 48, Pandaan, Pasuruan, East Java",
          "map_link": "https://maps.app.goo.gl/EXAMPLE",
          "phone": "(031) 888-9999",
          "coords": { "lat": -7.54, "lng": 112.71 }
        },
        {
          "id": "medan",
          "city": "Medan",
          "address": "Jl. Medan-Tanjung Morawa KM 12.5, Deli Serdang Regency, North Sumatra",
          "map_link": "https://maps.app.goo.gl/EXAMPLE",
          "phone": "(061) 794-1111",
          "coords": { "lat": 3.59, "lng": 98.67 }
        },
        {
          "id": "pekanbaru",
          "city": "Pekanbaru",
          "address": "Jl. Jend. Sudirman No. 450, Pekanbaru City, Riau",
          "map_link": "https://maps.app.goo.gl/EXAMPLE",
          "phone": "(0761) 858-222",
          "coords": { "lat": 0.51, "lng": 101.45 }
        },
        {
          "id": "balikpapan",
          "city": "Balikpapan",
          "address": "Jl. Mulawarman No. 21, Batakan, East Balikpapan, East Kalimantan",
          "map_link": "https://maps.app.goo.gl/EXAMPLE",
          "phone": "(0542) 761-888",
          "coords": { "lat": -1.27, "lng": 116.83 }
        },
        {
          "id": "makassar",
          "city": "Makassar",
          "address": "Jl. Urip Sumoharjo KM. 6, Tello Baru, Panakkukang, Makassar, South Sulawesi",
          "map_link": "https://maps.app.goo.gl/EXAMPLE",
          "phone": "(0411) 448-888",
          "coords": { "lat": -5.14, "lng": 119.43 }
        }
      ]
    },
    "virtual_tour": {
      "title": "Visit Our Facilities, Virtually",
      "video_thumbnail": "/branches/virtual-tour.webp",
      "video_id": "dQw4w9WgXcQ"
    },
    "facility_gallery": {
      "title": "Professional Standards at Every Location",
      "images": [
        "/branches/gallery-1.webp",
        "/branches/gallery-2.webp",
        "/branches/gallery-3.webp",
        "/branches/gallery-4.webp"
      ]
    },
    "main_cta": {
      "title": "Our Expert Team is Waiting in Your City",
      "cta_button": "Find The Nearest Branch"
    }
  }
}
